City_ID,City,Lat,Lng,Max Temp,Humidity,Cloudiness,Wind Speed,Country,Date
0,mukalla,14.5425,49.1242,24.91,80,86,0.4,YE,1706461622
1,khabary,53.6259,79.5345,-22.6,100,96,1.84,RU,1706461622
2,papatowai,-46.5619,169.4708,12.43,87,90,1.64,NZ,1706461623
3,waitangi,-43.9535,-176.5597,17.68,97,100,4.47,NZ,1706461623
4,kavaratti,10.5669,72.642,27.53,65,29,1.38,IN,1706461623
5,port-aux-francais,-49.35,70.2167,5.57,72,89,10.57,TF,1706461623
6,colonia,50.9333,6.95,10.46,51,0,4.63,DE,1706461623
7,grytviken,-54.2811,-36.5092,5.87,67,11,7.59,GS,1706461624
8,jamaame,0.0697,42.745,26.68,82,50,5.23,SO,1706461624
9,puerto natales,-51.7236,-72.4875,20.25,34,75,11.32,CL,1706461624
10,constantia,44.1833,28.65,3.38,72,99,9.01,RO,1706461625
11,kapuskasing,49.4169,-82.4331,-1.95,80,100,2.06,CA,1706461625
12,ola,59.5833,151.2833,-25.09,81,35,2.57,RU,1706461625
13,kapa'a,22.0752,-159.319,23.18,82,0,6.69,US,1706461625
14,margaret river,-33.95,115.0667,13.24,78,71,4.07,AU,1706461626
15,qaqortoq,60.7167,-46.0333,-19.8,66,22,4.57,GL,1706461626
16,phnom penh,11.5625,104.916,26.95,69,20,1.54,KH,1706461541
17,avarua,-21.2078,-159.775,27.03,94,100,1.03,CK,1706461626
18,bredasdorp,-34.5322,20.0403,22.47,62,97,5.68,ZA,1706461627
19,stanley,54.868,-1.6985,7.77,83,20,1.03,GB,1706461585
20,roma,43.2128,-75.4557,3.94,95,100,3.09,US,1706461627
21,utrik,11.2278,169.8474,25.38,64,100,5.24,MH,1706461628
22,anadyr,64.75,177.4833,-30.72,76,0,4.0,RU,1706461628
23,hawaiian paradise park,19.5933,-154.9731,20.57,87,0,2.06,US,1706461628
24,fisterra,42.9049,-9.2629,18.19,73,100,10.95,ES,1706461628
25,st. john's,47.5649,-52.7093,0.38,83,98,3.58,CA,1706461628
26,udachny,66.4167,112.4,-30.94,87,26,1.99,RU,1706461629
27,adamstown,-25.066,-130.1015,24.51,74,100,4.92,PN,1706461629
28,nova sintra,14.8667,-24.7167,21.69,68,7,8.66,CV,1706461629
29,ostashkov,57.1467,33.1075,-8.35,97,53,2.43,RU,1706461629
30,ushuaia,-54.8,-68.3,16.81,36,0,3.09,AR,1706461482
31,atafu village,-8.5421,-172.5159,28.99,73,44,2.18,TK,1706461630
32,arraial do cabo,-22.9661,-42.0278,27.92,74,75,3.6,BR,1706461630
33,aitape,-3.1374,142.3475,26.04,84,99,1.6,PG,1706461630
34,hermanus,-34.4187,19.2345,21.0,79,89,3.43,ZA,1706461631
35,ago-are,8.5,3.4167,34.73,12,37,2.18,NG,1706461631
36,remire-montjoly,4.9167,-52.2667,27.02,89,75,1.54,GF,1706461631
37,bom jesus,-9.0744,-44.3586,23.75,91,100,0.86,BR,1706461632
38,namibe,-15.1961,12.1522,25.16,73,5,5.12,AO,1706461632
39,vilhena,-12.7406,-60.1458,29.12,65,40,3.6,BR,1706461436
40,edinburgh of the seven seas,-37.0676,-12.3116,15.42,70,44,6.29,SH,1706461632
41,bilibino,68.0546,166.4372,-29.01,100,100,0.66,RU,1706461425
42,jamestown,42.097,-79.2353,3.9,99,100,3.6,US,1706461633
43,ebon,4.582,168.6964,27.16,69,100,5.17,MH,1706461633
44,miranda,3.2499,-76.2281,28.08,61,69,1.82,CO,1706461633
45,iskateley,67.6803,53.1512,-7.43,93,100,7.27,RU,1706461633
46,blackmans bay,-43.0167,147.3167,17.07,82,55,2.63,AU,1706461634
47,port augusta,-32.5,137.7667,24.35,38,0,3.04,AU,1706461358
48,colby,39.3958,-101.0524,7.12,58,0,5.66,US,1706461634
49,bikenibeu village,1.3673,173.1241,27.2,74,100,7.05,KI,1706461634
50,kingston,17.997,-76.7936,29.53,66,20,8.23,JM,1706461553
51,nogliki,51.8333,143.1667,-17.62,98,98,3.04,RU,1706461635
52,san antonio de pale,-1.4014,5.6325,28.01,76,60,3.95,GQ,1706461388
53,wailua homesteads,22.0669,-159.378,22.44,82,0,6.69,US,1706461635
54,bethel,41.3712,-73.414,3.44,86,100,5.14,US,1706461588
55,manado,1.487,124.8455,24.43,94,40,1.54,ID,1706461636
56,enewetak,11.3474,162.3373,26.13,77,99,8.43,MH,1706461636
57,dickinson,29.4608,-95.0513,13.34,72,0,6.69,US,1706461339
58,'ain el turk,35.7438,-0.7693,16.38,77,0,4.12,DZ,1706461636
59,iqaluit,63.7506,-68.5145,-36.15,61,20,5.66,CA,1706461337
60,narvik,68.4384,17.4272,2.67,99,100,5.16,NO,1706461637
61,port mathurin,-19.6833,63.4167,28.05,83,18,6.64,MU,1706461637
62,pisco,-13.7,-76.2167,27.23,78,0,5.66,PE,1706461637
63,falkenberg,56.9055,12.4912,4.08,81,100,6.99,SE,1706461638
64,kavieng,-2.5744,150.7967,27.1,83,100,4.56,PG,1706461638
65,kruisfontein,-34.0033,24.7314,22.0,62,100,6.54,ZA,1706461638
66,ancud,-41.8697,-73.8203,16.36,57,61,2.78,CL,1706461423
67,tibanbang,6.6315,126.1055,25.66,82,68,2.63,PH,1706461638
68,margate,51.3813,1.3862,7.72,82,99,2.68,GB,1706461604
69,tazovsky,67.4667,78.7,-14.45,95,100,3.95,RU,1706461435
70,ta`u,-14.2336,-169.5144,28.62,78,88,5.01,AS,1706461639
71,kununurra,-15.7667,128.7333,25.99,94,100,2.57,AU,1706461639
72,kourou,5.1552,-52.6478,27.03,71,27,3.87,GF,1706461640
73,isafjordur,66.0755,-23.124,-1.98,80,100,7.2,IS,1706461640
74,east london,-33.0153,27.9116,26.52,83,0,4.63,ZA,1706461446
75,bull savanna,17.8868,-77.5902,27.81,54,47,4.77,JM,1706461641
76,mafinga,-7.25,35.0667,21.0,93,92,1.15,TZ,1706461641
77,tommot,58.9564,126.2925,-43.83,100,97,0.1,RU,1706461641
78,vung tau,10.346,107.0843,24.54,77,96,9.55,VN,1706461567
79,ilulissat,69.2167,-51.1,-22.99,59,100,3.6,GL,1706461641
80,thompson,55.7435,-97.8558,-5.91,100,100,5.14,CA,1706461626
81,puerto ayora,-0.7393,-90.3518,28.02,71,71,4.2,EC,1706461642
82,ust-nera,64.5667,143.2,-39.94,98,100,2.67,RU,1706461642
83,ajdabiya,30.7554,20.2263,15.67,64,3,7.13,LY,1706461642
84,puerto baquerizo moreno,-0.9,-89.6,29.55,74,75,6.17,EC,1706461642
85,surgut,61.25,73.4167,-18.9,92,40,2.0,RU,1706461643
86,ingeniero guillermo n. juarez,-23.9,-61.85,37.8,19,8,0.94,AR,1706461643
87,petrovsk,52.3064,45.3917,-13.73,98,83,1.77,RU,1706461643
88,antalaha,-14.9003,50.2788,25.68,84,13,1.17,MG,1706461456
89,saipan,15.1355,145.701,24.39,69,75,4.63,MP,1706461644
90,albany,42.6001,-73.9662,1.9,84,100,1.26,US,1706461644
91,eunice,30.4944,-92.4176,8.32,67,0,4.49,US,1706461645
92,kiama,-34.6833,150.8667,20.88,86,71,2.41,AU,1706461645
93,kerema,-7.9631,145.7785,27.04,81,100,1.84,PG,1706461645
94,kodiak,57.79,-152.4072,-10.27,67,0,7.2,US,1706461646
95,invercargill,-46.4,168.35,11.12,96,69,2.24,NZ,1706461646
96,dul'durga,50.6761,113.5931,-23.2,86,4,0.67,RU,1706461646
97,fauske,67.2588,15.3918,6.02,88,100,3.5,NO,1706461646
98,codrington,-38.2667,141.9667,13.99,93,1,2.44,AU,1706461646
99,new norfolk,-42.7826,147.0587,17.72,97,34,1.72,AU,1706461647
100,ribeira grande,38.5167,-28.7,15.22,51,20,3.6,PT,1706461647
101,mirny,62.5353,113.9611,-38.11,100,52,0.2,RU,1706461647
102,rouissat,31.9243,5.3502,20.52,20,3,2.76,DZ,1706461647
103,lihue,21.9789,-159.3672,22.77,78,0,6.69,US,1706461648
104,priozersk,61.0393,30.1291,0.56,86,100,4.83,RU,1706461648
105,port alfred,-33.5906,26.891,23.73,85,83,1.73,ZA,1706461648
106,olonkinbyen,70.9221,-8.7187,-4.6,76,83,6.33,SJ,1706461649
107,semenivka,52.1783,32.5818,-7.41,96,99,2.73,UA,1706461649
108,bukama,-9.2,25.85,22.31,96,100,1.08,CD,1706461649
109,namsos,64.4662,11.4957,6.03,81,0,3.09,NO,1706461649
110,port elizabeth,-33.918,25.5701,24.06,59,97,5.36,ZA,1706461649
111,port lincoln,-34.7333,135.8667,18.33,74,0,0.96,AU,1706461372
112,dampit,-8.2116,112.7493,22.37,97,100,0.57,ID,1706461650
113,longyearbyen,78.2186,15.6401,-8.09,73,20,3.09,SJ,1706461394
114,lebu,-37.6167,-73.65,18.08,68,88,6.43,CL,1706461650
115,vallenar,-28.5708,-70.7581,30.1,35,0,4.4,CL,1706461396
116,dwarka,22.2394,68.9678,21.72,69,99,4.82,IN,1706461651
117,gunjur,13.2019,-16.7339,36.04,14,26,3.09,GM,1706461524
118,pangody,65.85,74.4859,-13.63,96,100,4.17,RU,1706461651
119,vadso,70.0744,29.7487,0.09,74,0,6.17,NO,1706461652
120,at taj,24.2049,23.2857,14.52,40,62,4.77,LY,1706461652
121,salamanca,40.8333,-6.0,15.88,67,100,2.09,ES,1706461652
122,corvallis,44.5646,-123.262,15.26,96,100,1.54,US,1706461652
123,talnakh,69.4865,88.3972,-11.39,94,100,5.61,RU,1706461653
124,el calafate,-50.3408,-72.2768,14.01,56,100,2.74,AR,1706461653
125,petropavlovsk-kamchatsky,53.0452,158.6483,-9.19,94,100,1.79,RU,1706461653
126,georgetown,5.4112,100.3354,28.96,76,20,4.12,MY,1706461353
127,nuuk,64.1835,-51.7216,-16.66,71,40,7.2,GL,1706461653
128,westport,41.1415,-73.3579,4.99,88,100,7.72,US,1706461490
129,aromashevo,56.8602,68.6375,-13.67,98,99,1.69,RU,1706461654
130,kailua-kona,19.6406,-155.9956,22.98,82,0,4.63,US,1706461654
131,laguna,38.421,-121.4238,15.92,94,0,2.06,US,1706461654
132,afaahiti,-17.75,-149.2833,27.93,80,67,2.19,PF,1706461655
133,mount gambier,-37.8333,140.7667,12.89,96,3,1.4,AU,1706461655
134,kombissiri,12.0656,-1.3375,31.73,10,3,3.99,BF,1706461655
135,wynyard,-41.0,145.7167,14.63,96,31,2.09,AU,1706461655
136,queenstown,-31.8976,26.8753,24.0,63,90,4.15,ZA,1706461656
137,hadibu,12.65,54.0333,25.63,79,99,3.77,YE,1706461656
138,belle fourche,44.6714,-103.8522,11.3,60,84,4.75,US,1706461656
139,pucallpa,-8.3791,-74.5539,29.02,74,75,1.03,PE,1706461656
140,bandarbeyla,9.4942,50.8122,25.63,86,100,5.27,SO,1706461657
141,sinop,41.7711,34.8709,0.63,97,100,2.04,TR,1706461511
142,neftegorsk,52.802,51.166,-15.34,99,98,1.49,RU,1706461657
143,koh kong,11.6175,102.9806,24.81,74,47,1.03,KH,1706461657
144,bengkulu,-3.8004,102.2655,24.77,93,100,2.55,ID,1706461657
145,sanctuary point,-35.1114,150.629,20.74,92,83,2.12,AU,1706461658
146,walvis bay,-22.9575,14.5053,20.61,70,100,7.68,NA,1706461658
147,mosjoen,65.836,13.1908,8.06,87,75,4.12,NO,1706461658
148,ulanhot,46.0833,122.0833,-19.36,78,48,2.91,CN,1706461658
149,fortuna,40.5982,-124.1573,16.19,94,0,4.12,US,1706461659
150,kristiansund,63.1115,7.732,10.03,81,0,2.57,NO,1706461659
151,rongelap,11.1635,166.8941,25.26,72,100,5.65,MH,1706461659
152,al khums,32.6486,14.2619,16.06,64,22,5.56,LY,1706461660
153,sisimiut,66.9395,-53.6735,-20.13,96,100,2.94,GL,1706461660
154,nelson bay,-32.7167,152.15,23.38,85,97,4.47,AU,1706461660
155,loch garman,52.3342,-6.4575,11.61,100,99,6.71,IE,1706461610
156,punta arenas,-53.15,-70.9167,16.06,51,75,12.35,CL,1706461661
157,al jawf,29.5,38.75,11.42,48,6,3.3,SA,1706461661
158,reyes,-14.3167,-67.3833,36.22,40,3,1.51,BO,1706461662
159,kendari,-3.945,122.4989,24.71,93,97,0.84,ID,1706461662
160,carnarvon,-24.8667,113.6333,22.68,78,0,9.39,AU,1706461662
161,tura,25.5198,90.2201,13.64,59,79,0.95,IN,1706461662
162,benguela,-12.5763,13.4055,28.02,73,14,3.23,AO,1706461662
163,tiksi,71.6872,128.8694,-24.74,71,11,6.25,RU,1706461663
164,tsiombe,-25.3,45.4833,23.82,84,18,6.73,MG,1706461663
165,hamilton,39.1834,-84.5333,3.97,94,100,6.69,US,1706461539
166,ponta delgada,37.7333,-25.6667,15.4,58,20,6.17,PT,1706461663
167,swift current,50.2834,-107.8014,4.24,87,7,6.54,CA,1706461628
168,happy valley-goose bay,53.3168,-60.3315,-12.83,72,100,4.63,CA,1706461584
169,crane,31.3974,-102.3501,12.73,36,1,2.96,US,1706461664
170,aasiaat,68.7098,-52.8699,-31.07,98,97,3.53,GL,1706461664
171,broken hill,-31.95,141.4333,23.95,31,0,3.29,AU,1706461665
172,merouana,35.6311,5.9119,13.61,41,20,2.5,DZ,1706461665
173,saudarkrokur,65.7461,-19.6394,-7.71,87,65,6.4,IS,1706461665
174,whitehorse,60.7161,-135.0538,-5.58,95,72,4.17,CA,1706461665
175,prince george,53.9166,-122.753,5.34,93,0,1.54,CA,1706461666
176,ambon,-3.6954,128.1814,27.08,14,40,1.54,ID,1706461666
177,kachug,53.9606,105.8817,-32.75,99,32,0.89,RU,1706461666
178,fale old settlement,-9.3852,-171.2468,29.06,73,79,2.42,TK,1706461666
179,mandalgovi,45.7625,106.2708,-22.23,100,20,1.67,MN,1706461666
180,nikolayevsk-on-amure,53.1406,140.73,-19.42,100,100,1.04,RU,1706461667
181,estebania,18.4577,-70.6435,29.61,48,5,2.77,DO,1706461667
182,praia da vitoria,38.7333,-27.0667,15.42,66,47,3.71,PT,1706461667
183,howard springs,-12.497,131.047,25.95,96,100,2.49,AU,1706461667
184,naracoorte,-36.9579,140.7383,16.38,78,0,1.21,AU,1706461668
185,badger,64.8,-147.5333,-39.07,63,75,0.0,US,1706461668
186,mogadishu,2.0371,45.3438,26.69,87,28,8.4,SO,1706461668
187,aykhal,66.0,111.5,-25.17,55,24,2.58,RU,1706461668
188,port saint john's,-31.6229,29.5448,25.57,88,91,5.95,ZA,1706461668
189,freetown,8.484,-13.2299,28.49,62,9,3.97,SL,1706461669
190,dakhla,23.6848,-15.958,21.18,56,0,5.19,EH,1706461669
191,juan de ayolas,-27.4,-56.9,30.86,39,0,1.45,PY,1706461669
192,barra de santo antonio,-9.4047,-35.5072,31.6,68,99,5.12,BR,1706461669
193,pacific,38.482,-90.7415,2.1,70,100,4.96,US,1706461669
194,lata,40.1629,-8.3327,18.29,71,100,1.88,PT,1706461670
195,yellowknife,62.456,-114.3525,-13.1,92,100,3.6,CA,1706461670
196,shingu,33.7333,135.9833,2.32,86,5,3.38,JP,1706461670
197,toccoa,34.5773,-83.3324,10.8,57,40,6.69,US,1706461670
198,oppdal,62.5943,9.6912,-1.42,90,100,8.1,NO,1706461670
199,susuman,62.7833,148.1667,-40.01,99,87,0.45,RU,1706461671
200,chonchi,-42.6128,-73.8092,19.56,34,90,0.93,CL,1706461671
201,hithadhoo,-0.6,73.0833,27.85,75,9,5.77,MV,1706461407
202,minden,52.2833,8.9167,9.12,43,40,6.17,DE,1706461672
203,hasaki,35.7333,140.8333,2.94,54,54,9.05,JP,1706461672
204,college,64.8569,-147.8028,-39.03,43,75,0.0,US,1706461672
205,zhenjiang,32.2092,119.4342,1.0,80,0,1.78,CN,1706461672
206,banamba,13.55,-7.45,31.37,8,60,3.69,ML,1706461672
207,qui nhon,13.7667,109.2333,22.01,88,88,5.01,VN,1706461673
208,bamboo flat,11.7,92.7167,26.05,89,40,2.06,IN,1706461673
209,richards bay,-28.783,32.0377,25.09,75,21,5.67,ZA,1706461426
210,la ronge,55.1001,-105.2842,-2.67,86,95,1.96,CA,1706461673
211,tisul',55.7611,88.3122,-21.59,100,70,1.64,RU,1706461673
212,dunedin,-45.8742,170.5036,13.22,92,41,2.68,NZ,1706461674
213,miracema do tocantins,-9.5618,-48.3967,26.53,79,99,1.82,BR,1706461674
214,san javier,37.8063,-0.8374,17.6,75,20,5.14,ES,1706461674
215,hobyo,5.3505,48.5268,26.79,79,84,5.98,SO,1706461674
216,caetes,-8.7731,-36.6225,29.78,36,86,4.86,BR,1706461674
217,mugia,43.1041,-9.2179,18.28,70,100,10.38,ES,1706461674
218,harwich,51.9419,1.2844,7.57,83,100,2.68,GB,1706461675
219,villa gesell,-37.2639,-56.973,26.7,58,9,8.57,AR,1706461675
220,west island,-12.1568,96.8225,25.99,73,100,3.6,CC,1706461675
221,revda,56.801,59.9303,-11.73,95,88,2.45,RU,1706461675
222,lorengau,-2.0226,147.2712,26.86,86,97,5.67,PG,1706461675
223,villa union,23.2,-106.2333,25.98,50,75,0.0,MX,1706461676
224,klyuchi,52.2667,79.1667,-17.43,99,95,2.26,RU,1706461676
225,talcahuano,-36.7167,-73.1167,19.82,68,0,5.14,CL,1706461397
226,menaka,15.9182,2.4022,28.34,11,2,5.99,ML,1706461676
227,sulejow,51.3544,19.8854,3.99,79,99,0.98,PL,1706461676
228,mogocha,53.7333,119.7667,-32.46,95,16,1.74,RU,1706461676
229,tharangambadi,11.0319,79.8528,24.84,71,71,5.81,IN,1706461677
230,laascaanood,8.4774,47.3597,28.12,43,92,2.25,SO,1706461677
231,burgos,42.3394,-3.7079,15.23,51,0,2.57,ES,1706461677
232,vilyuysk,63.7553,121.6247,-40.0,100,99,1.34,RU,1706461677
233,fortaleza,-3.7227,-38.5247,33.37,73,40,8.75,BR,1706461678
234,rio gallegos,-51.6226,-69.2181,24.03,20,0,4.12,AR,1706461678
235,cidreira,-30.1811,-50.2056,24.83,69,41,4.09,BR,1706461678
236,holualoa,19.6228,-155.9522,20.91,82,0,4.63,US,1706461678
237,vorgashor,67.5833,63.95,-11.6,94,100,4.5,RU,1706461678
238,pomezia,41.667,12.5052,12.7,67,0,2.06,IT,1706461678
239,moranbah,-22.0016,148.0466,28.97,68,100,5.23,AU,1706461679
240,tofol,5.3248,163.0078,27.22,69,100,6.61,FM,1706461679
241,pemangkat,1.1667,108.9667,25.13,89,100,4.25,ID,1706461679
242,srisailain,16.0833,78.8667,18.96,90,76,2.01,IN,1706461679
243,murzuq,25.9155,13.9184,16.01,44,0,4.66,LY,1706461679
244,lebanon,36.2081,-86.2911,6.12,95,100,4.63,US,1706461680
245,lubawka,50.7046,16.0003,1.92,78,51,1.65,PL,1706461680
246,murun-kuren,49.6342,100.1625,-23.1,88,90,0.46,MN,1706461680
247,alice springs,-23.7,133.8833,23.75,46,56,0.0,AU,1706461680
248,smithers,54.7804,-127.1743,-2.82,100,75,0.0,CA,1706461680
249,natal,-5.795,-35.2094,32.36,55,40,8.23,BR,1706461680
250,east ballina,-28.8667,153.5833,26.0,94,91,4.05,AU,1706461681
251,puerto colombia,10.9878,-74.9547,33.05,72,6,9.12,CO,1706461681
252,gisborne,-38.6533,178.0042,18.01,89,100,5.25,NZ,1706461681
253,neyriz,29.1988,54.3278,8.46,45,0,2.49,IR,1706461681
254,amlapura,-8.45,115.6167,25.48,87,90,1.89,ID,1706461682
255,feijo,-8.1642,-70.3536,30.22,59,78,2.14,BR,1706461682
256,st. paul,44.9444,-93.0933,0.49,95,100,2.57,US,1706461481
257,itaituba,-4.2761,-55.9836,25.54,96,100,2.03,BR,1706461682
258,haiku-pauwela,20.9219,-156.3051,24.47,76,75,9.77,US,1706461682
259,zeya,53.75,127.2667,-19.73,87,100,1.42,RU,1706461683
260,wau,7.7029,27.9953,27.11,18,100,1.95,SS,1706461683
261,kone,-21.0595,164.8658,23.21,84,7,1.48,NC,1706461683
262,clear lake,43.138,-93.3794,-0.15,73,100,4.12,US,1706461683
263,lazaro cardenas,17.9583,-102.2,29.13,51,29,0.66,MX,1706461598
264,ierapetra,35.01,25.7353,10.64,83,90,4.02,GR,1706461684
265,preston,53.7667,-2.7167,10.18,82,100,6.09,GB,1706461684
266,mae sai,20.4335,99.8762,17.02,99,7,0.11,TH,1706461684
267,vilppula,62.0212,24.5048,1.55,97,100,5.38,FI,1706461684
268,uturoa,-16.7333,-151.4333,27.53,81,56,3.2,PF,1706461685
269,santa cecilia,-26.9608,-50.4269,20.55,68,51,1.88,BR,1706461685
270,tilcara,-23.5776,-65.3509,15.5,63,39,3.79,AR,1706461685
271,alofi,-19.0595,-169.9187,26.49,75,91,5.05,NU,1706461685
272,taltal,-25.4,-70.4833,22.35,70,14,2.78,CL,1706461686
273,ballina,-28.8667,153.5667,25.99,94,92,3.77,AU,1706461686
274,nar'yan-mar,67.6713,53.087,-7.28,93,100,7.28,RU,1706461686
275,magadan,59.5667,150.8,-23.94,72,32,2.33,RU,1706461528
276,mili,6.0815,171.735,25.48,78,100,6.56,MH,1706461686
277,saint-mandrier-sur-mer,43.078,5.929,13.07,76,0,4.63,FR,1706461687
278,kawm umbu,24.4767,32.9463,17.9,29,98,3.19,EG,1706461687
279,maceio,-9.6658,-35.7353,31.69,66,40,7.2,BR,1706461687
280,kayangel,8.0823,134.7173,27.6,80,100,6.8,PW,1706461687
281,coelho neto,-4.2567,-43.0128,32.2,50,97,1.02,BR,1706461473
282,ghadamis,30.1337,9.5007,16.57,45,0,3.89,LY,1706461688
283,saint-pierre,-21.3393,55.4781,25.82,94,75,9.26,RE,1706461688
284,oami,35.5167,140.3167,7.01,51,46,3.73,JP,1706461688
285,dudinka,69.4058,86.1778,-12.4,93,100,8.49,RU,1706461688
286,fort bragg,35.139,-79.006,19.82,45,0,12.35,US,1706461689
287,tual,-5.6667,132.75,28.66,76,100,7.45,ID,1706461689
288,tepalcatepec,19.1833,-102.85,30.1,20,29,0.81,MX,1706461689
289,nadi,-17.8,177.4167,22.0,88,20,2.57,FJ,1706461689
290,oral,51.2333,51.3667,-16.01,85,0,4.0,KZ,1706461690
291,kerikeri,-35.2268,173.9474,16.62,92,90,3.99,NZ,1706461690
292,ulysses,37.5814,-101.3552,8.54,70,0,5.66,US,1706461690
293,kirensk,57.7853,108.1119,-33.35,100,36,1.34,RU,1706461690
294,cabo san lucas,22.8909,-109.9124,25.98,69,0,1.79,MX,1706461572
295,zaranj,30.9667,61.8833,20.4,33,54,2.63,AF,1706461691
296,mozhga,56.4447,52.2276,-14.45,99,94,1.34,RU,1706461691
297,jayapura,-2.5333,140.7,24.66,90,92,1.4,ID,1706461691
298,rosetta,31.4044,30.4164,13.93,71,89,4.46,EG,1706461692
299,thunder bay,48.4001,-89.3168,0.36,84,50,2.0,CA,1706461674
300,tabuk,17.4189,121.4443,17.7,91,56,1.06,PH,1706461692
301,yorkton,51.2167,-102.4677,-5.01,88,34,2.22,CA,1706461692
302,guerrero negro,27.9769,-114.0611,19.93,32,51,2.17,MX,1706461693
303,troy,42.6056,-83.1499,3.5,91,100,3.6,US,1706461491
304,illizi,26.4833,8.4667,18.87,18,0,4.65,DZ,1706461693
305,vysokaya gora,55.9128,49.3017,-6.9,99,90,1.19,RU,1706461694
306,nova olimpia,-14.7972,-57.2881,36.54,35,66,1.24,BR,1706461499
307,shovot,41.6607,60.2924,-1.98,82,100,3.12,UZ,1706461694
308,as sulayyil,20.4607,45.5779,20.14,29,99,5.58,SA,1706461694
309,saurimo,-9.6608,20.3916,21.56,90,89,2.16,AO,1706461695
310,araripina,-7.5761,-40.4983,29.83,49,97,3.49,BR,1706461516
311,cortez,37.3489,-108.5859,3.29,60,0,0.0,US,1706461695
312,acarau,-2.8856,-40.12,31.66,57,73,8.39,BR,1706461695
313,trairi,-3.2778,-39.2689,31.64,58,68,6.9,BR,1706461669
314,chicoana,-25.1009,-65.5331,28.92,52,11,1.81,AR,1706461696
315,igarka,67.4667,86.5833,-11.64,93,100,8.01,RU,1706461696
316,coahuayana de hidalgo,18.7,-103.6583,30.06,46,17,1.76,MX,1706461696
317,fairburn,33.5671,-84.581,9.51,73,75,9.26,US,1706461696
318,antonio enes,-16.2325,39.9086,26.39,75,18,3.55,MZ,1706461697
319,kant,27.8,79.8,13.43,45,100,1.79,IN,1706461697
320,zaterechnyy,44.7931,45.2097,-0.81,91,100,2.2,RU,1706461697
321,zambezi,-13.5432,23.1047,23.87,57,21,2.68,ZM,1706461697
322,gadzhiyevo,69.2551,33.3362,-2.09,79,38,11.48,RU,1706461698
323,kiunga,-6.1219,141.2906,23.6,86,81,0.99,PG,1706461698
324,kemise,10.7167,39.8667,21.37,74,99,1.92,ET,1706461698
325,panaba,21.2833,-88.2667,25.14,72,20,7.76,MX,1706461698
326,shagonar,51.5333,92.8,-31.0,95,75,0.79,RU,1706461699
327,vernon,50.2581,-119.2691,5.16,93,100,0.95,CA,1706461699
328,berdigestyakh,62.0989,126.6992,-44.56,100,77,0.93,RU,1706461699
329,guatrache,-37.6678,-63.5302,34.87,17,81,7.78,AR,1706461700
330,tosontsengel,48.7567,98.2839,-28.56,89,47,0.41,MN,1706461627
331,borba,-4.3878,-59.5939,31.22,58,91,2.95,BR,1706461700
332,san patricio,28.017,-97.5169,16.97,53,0,3.32,US,1706461701
333,port hedland,-20.3167,118.5667,27.03,78,100,6.69,AU,1706461701
334,bermeo,43.4209,-2.7215,21.11,65,92,4.49,ES,1706461701
335,niamey,13.5137,2.1098,30.26,10,1,5.67,NE,1706461680
336,sant antoni de portmany,38.9807,1.3036,15.77,80,75,6.17,ES,1706461702
337,aljezur,37.3191,-8.8033,17.28,74,99,3.32,PT,1706461702
338,carnaiba,-8.7,-37.6667,37.2,23,38,4.37,BR,1706461702
339,hovd,48.0056,91.6419,-20.98,91,78,0.08,MN,1706461702
340,tangalle,6.024,80.7911,24.39,86,44,4.17,LK,1706461703
341,sil-li,39.4947,125.4736,-8.46,96,6,1.28,KP,1706461703
342,keflavik,64.0049,-22.5624,-2.76,100,75,4.12,IS,1706461703
343,beledweyne,4.7358,45.2036,32.98,32,42,5.69,SO,1706461703
344,brandon,27.9378,-82.2859,20.33,74,100,5.66,US,1706461704
345,bereket,39.2446,55.5154,5.47,78,100,7.57,TM,1706461704
346,vilyuchinsk,52.9306,158.4028,-8.37,88,100,3.04,RU,1706461704
347,leava,-14.3,-178.1667,26.57,89,100,5.35,WF,1706461704
348,mount isa,-20.7333,139.5,26.87,89,40,3.09,AU,1706461705
349,banyo,6.75,11.8167,27.78,22,5,1.3,CM,1706461705
350,marsabit,2.3284,37.9899,25.82,39,57,2.92,KE,1706461705
351,amahai,-3.3333,128.9167,26.4,83,100,1.72,ID,1706461706
352,saint-joseph,-21.3667,55.6167,25.21,92,98,6.65,RE,1706461706
353,north bay,46.3168,-79.4663,3.3,86,40,3.6,CA,1706461706
354,mersing,2.4312,103.8405,24.97,89,92,4.91,MY,1706461707
355,carrizal,10.3499,-66.9863,24.89,35,13,1.37,VE,1706461707
356,waingapu,-9.6567,120.2641,26.03,85,98,3.06,ID,1706461707
357,lumajang,-8.1335,113.2248,24.15,95,100,1.46,ID,1706461708
358,celestun,20.8667,-90.4,23.67,71,96,8.19,MX,1706461708
359,moyo,3.6609,31.7247,30.08,26,98,2.78,UG,1706461708
360,mejit,10.2753,170.8646,24.97,72,100,5.19,MH,1706461708
361,merizo village,13.2658,144.6691,26.1,83,100,8.3,GU,1706461709
362,al hazm,16.1641,44.7769,25.09,31,92,1.48,YE,1706461709
363,qarazhal,48.0078,70.7903,-15.21,94,30,4.25,KZ,1706461709
364,portland,45.5234,-122.6762,15.81,96,100,2.24,US,1706461514
365,bouna,9.2667,-3.0,34.92,9,5,2.8,CI,1706461710
366,petauke,-14.2426,31.3253,22.58,74,39,1.36,ZM,1706461710
367,lensk,60.7253,114.9278,-35.54,100,99,0.72,RU,1706461710
368,arawa,-6.2132,155.5367,25.43,86,100,0.37,PG,1706461710
369,muana,-1.5283,-49.2167,32.35,52,97,2.45,BR,1706461669
370,south hedland,-20.4089,118.5983,26.96,78,100,6.69,AU,1706461711
371,sitka,57.0531,-135.33,7.94,76,100,10.29,US,1706461711
372,yaren,-0.5472,166.916,28.37,76,100,6.74,NR,1706461711
373,el tarf,36.7672,8.3138,15.87,74,10,2.66,DZ,1706461712
374,atascadero,35.4894,-120.6707,16.68,66,95,3.29,US,1706461644
375,sinabang,2.4803,96.3801,26.89,81,74,0.84,ID,1706461712
376,akureyri,65.6835,-18.0878,-8.51,86,53,4.22,IS,1706461712
377,manay,7.215,126.5397,25.48,82,84,4.53,PH,1706461712
378,madera,37.1666,-119.8343,18.93,73,97,0.96,US,1706461713
379,riohacha,11.5444,-72.9072,33.06,46,20,7.72,CO,1706461713
380,puerto aysen,-45.4,-72.7,22.74,29,6,1.98,CL,1706461713
381,vila velha,-20.3297,-40.2925,27.97,92,40,5.14,BR,1706461713
382,labrador city,52.9463,-66.9114,-17.07,81,96,5.38,CA,1706461714
383,angaur state,6.906,134.13,27.61,84,58,5.45,PW,1706461714
384,arauquita,7.0292,-71.4281,35.44,28,98,1.86,CO,1706461714
385,visby,57.6409,18.296,3.12,87,0,6.69,SE,1706461714
386,jabat,7.75,168.9751,26.15,68,100,6.48,MH,1706461715
387,sokoni,-6.4333,39.55,28.11,81,65,6.44,TZ,1706461715
388,melfi,40.9965,15.6514,4.72,72,10,2.02,IT,1706461715
389,callao,-12.0667,-77.15,28.16,65,40,5.66,PE,1706461716
390,kuanda,56.3161,116.0806,-35.29,96,57,0.48,RU,1706461716
391,kangdong-up,39.1425,126.0961,-8.36,95,9,0.71,KP,1706461716
392,san rafael,-34.6177,-68.3301,35.38,19,29,5.98,AR,1706461716
393,iquique,-20.2208,-70.1431,24.43,69,3,3.01,CL,1706461717
394,sault ste. marie,46.5168,-84.3333,2.16,80,100,1.54,CA,1706461634
395,arar,30.9753,41.0381,13.01,35,40,2.06,SA,1706461717
396,san julian,21.0167,-102.1667,16.62,47,37,3.93,MX,1706461717
397,sechura,-5.5569,-80.8222,28.93,59,84,3.25,PE,1706461626
398,dhidhdhoo,6.8833,73.1,26.99,71,71,3.51,MV,1706461489
399,la puebla de montalban,39.863,-4.3592,15.29,62,100,1.08,ES,1706461718
400,fada,9.5667,8.3,30.72,15,2,0.82,NG,1706461718
401,ad dawhah,31.6995,35.1805,7.91,89,55,3.13,PS,1706461718
402,recreo,-29.2818,-65.061,35.18,23,3,7.8,AR,1706461719
403,fort wellington,6.4,-57.6,29.78,59,60,4.41,GY,1706461719
404,santa terezinha,-29.9002,-50.0904,24.76,70,49,3.68,BR,1706461719
405,mulanje,-16.0316,35.5,22.08,72,4,1.97,MW,1706461719
406,macau,22.2006,113.5461,13.89,82,40,4.63,MO,1706461720
407,luanda,-8.8368,13.2343,27.14,79,92,4.76,AO,1706461720
408,tafuna,-14.3358,-170.72,27.97,94,75,1.54,AS,1706461720
409,nishinoomote,30.7333,131.0,10.46,52,0,2.06,JP,1706461720
410,nemuro,43.3236,145.575,0.13,87,95,6.6,JP,1706461721
411,wewak,-3.5534,143.6268,26.7,83,100,1.44,PG,1706461721
412,coquimbo,-29.9533,-71.3436,20.46,74,92,3.08,CL,1706461721
413,mumbwa,-14.9783,27.0619,20.37,73,3,1.27,ZM,1706461721
414,guangzhou,23.1167,113.25,9.97,61,100,2.41,CN,1706461589
415,prado,-17.3411,-39.2208,25.11,91,100,4.6,BR,1706461722
416,tucurui,-3.7661,-49.6725,25.02,90,100,0.72,BR,1706461722
417,dunay,42.8803,132.3375,-14.6,76,7,4.33,RU,1706461722
418,beira,-19.8436,34.8389,25.56,73,2,3.7,MZ,1706461723
419,nadym,65.5333,72.5167,-11.7,96,100,4.42,RU,1706461723
420,pacific grove,36.6177,-121.9166,16.35,79,0,1.79,US,1706461608
421,puerto san jose,13.9256,-90.8244,31.45,45,18,3.14,GT,1706461723
422,flying fish cove,-10.4217,105.6791,26.82,94,75,2.06,CX,1706461723
423,kalmunai,7.4167,81.8167,25.5,83,77,5.03,LK,1706461724
424,sa'dah,16.9402,43.7639,17.07,70,83,0.84,YE,1706461724
425,olyokminsk,60.3736,120.4264,-35.98,100,93,0.29,RU,1706461724
426,grand falls-windsor,48.9332,-55.6649,-0.28,73,92,2.68,CA,1706461540
427,papao,-17.75,-149.55,28.82,76,62,1.13,PF,1706461725
428,owen sound,44.5672,-80.9435,3.51,88,100,4.02,CA,1706461725
429,galveston,29.3669,-94.9669,13.35,71,0,6.69,US,1706461725
430,la'ie,21.6477,-157.9253,24.98,90,24,5.81,US,1706461725
431,san juan de miraflores,-12.1629,-76.9635,27.29,71,97,4.06,PE,1706461726
432,santiago de cao,-7.9589,-79.2392,25.07,78,0,6.17,PE,1706461726
433,porto novo,6.4965,2.6036,30.55,31,7,3.77,BJ,1706461726
434,santa elena de uairen,4.6167,-61.1333,31.2,35,70,1.37,VE,1706461726
435,alo,7.4178,6.7371,36.46,13,24,1.8,NG,1706461726
436,klaksvik,62.2266,-6.589,5.51,91,100,12.43,FO,1706461727
437,ocean city,39.2776,-74.5746,6.68,92,100,5.81,US,1706461524
438,ketchikan,55.3422,-131.6461,10.99,81,100,5.66,US,1706461727
439,egilsstadir,65.2653,-14.3948,-4.49,82,95,4.35,IS,1706461727
440,chibougamau,49.9168,-74.3659,-6.21,93,100,4.12,CA,1706461727
441,mahibadhoo,3.7833,72.9667,27.68,74,4,6.74,MV,1706461728
442,woolgoolga,-30.1106,153.2007,24.47,92,100,4.53,AU,1706461728
443,lewin brzeski,50.7487,17.6169,0.23,36,90,3.28,PL,1706461728
444,beaufort west,-32.3567,22.583,33.67,13,76,6.32,ZA,1706461728
445,rouyn-noranda,48.2398,-79.0288,-2.95,80,100,2.06,CA,1706461441
446,khanty-mansiysk,61.0042,69.0019,-16.94,78,40,2.0,RU,1706461729
447,felipe carrillo puerto,19.5833,-88.05,27.68,70,12,2.54,MX,1706461729
448,magdagachi,53.45,125.8,-23.26,97,100,2.73,RU,1706461729
449,glace bay,46.1969,-59.957,-0.51,83,100,6.17,CA,1706461729
450,nagqu,31.5,92.0,-14.89,52,70,0.34,CN,1706461729
451,homer,59.6425,-151.5483,-12.07,60,0,2.57,US,1706461730
452,hilo,19.7297,-155.09,25.71,84,0,2.06,US,1706461730
453,agat village,13.3886,144.6585,26.31,75,100,4.63,GU,1706461730
454,ulsan,35.5372,129.3167,0.15,65,1,1.61,KR,1706461730
455,mersa matruh,31.3525,27.2453,14.86,57,5,2.65,EG,1706461730
456,arno,60.1167,18.6333,3.21,85,98,8.03,SE,1706461731
457,kapit,2.0167,112.9333,23.62,100,72,0.25,MY,1706461731
458,flin flon,54.7682,-101.865,-3.28,88,94,0.76,CA,1706461731
459,tolanaro,-25.0319,46.9987,24.24,83,97,5.48,MG,1706461731
460,irymple,-34.25,142.1667,22.14,40,0,2.35,AU,1706461731
461,sao lourenco da serra,-23.8525,-46.9425,27.77,59,62,2.11,BR,1706461732
462,embi,48.8264,58.1442,-11.69,84,100,5.02,KZ,1706461732
463,banavar,13.4136,76.1683,22.14,43,87,2.51,IN,1706461732
464,poyarkovo,49.6,128.6833,-16.58,97,100,2.47,RU,1706461732
465,terrace,54.5163,-128.6035,3.95,93,100,1.03,CA,1706461733
466,al burayqah,30.4062,19.5739,16.66,62,10,7.73,LY,1706461733
467,hailar,49.2,119.7,-34.98,100,20,2.26,CN,1706461733
468,viana do castelo,41.6932,-8.8329,15.58,75,93,4.2,PT,1706461733
469,sao joao da barra,-21.6403,-41.0511,29.05,87,100,1.22,BR,1706461733
470,podilsk,47.7578,29.5298,-0.46,75,100,4.82,UA,1706461733
471,bubaque,11.2833,-15.8333,27.04,58,54,4.55,GW,1706461734
472,rizokarpaso,35.6,34.375,11.63,41,4,1.57,CY,1706461734
473,samobor,45.8031,15.7181,7.03,75,0,1.54,HR,1706461734
474,basco,20.4487,121.9702,23.17,72,82,9.1,PH,1706461734
475,rakops,-21.0167,24.3333,31.39,31,100,3.62,BW,1706461735
476,sandnessjoen,66.0217,12.6316,8.06,71,75,12.86,NO,1706461735
477,ramadi,33.4226,43.3058,12.22,30,0,1.85,IQ,1706461735
478,geraldton,-28.7667,114.6,20.23,77,8,7.72,AU,1706461704
479,uchiza,-8.4592,-76.4633,29.26,70,95,0.72,PE,1706461735
480,majene,-3.5403,118.9707,25.67,87,92,2.14,ID,1706461736
481,duba,27.3513,35.6901,18.49,51,2,4.89,SA,1706461736
482,karema,-6.8205,30.4389,23.72,82,75,1.7,TZ,1706461736
483,kulhudhuffushi,6.6221,73.07,27.21,71,94,4.0,MV,1706461736
484,valley city,46.9233,-98.0032,0.29,100,0,4.12,US,1706461444
485,ghanzi,-21.5667,21.7833,29.73,33,97,2.71,BW,1706461737
486,cockburn town,21.4612,-71.1419,25.26,68,0,7.03,TC,1706461737
487,tongchuanshi,35.0806,109.0897,-0.55,54,0,0.22,CN,1706461737
488,petrov val,50.1434,45.2096,-8.09,90,100,4.19,RU,1706461737
489,bac lieu,9.285,105.7244,24.68,77,20,7.58,VN,1706461738
490,haradok,55.4624,29.9816,-7.58,98,26,1.74,BY,1706461738
491,dryden,49.7833,-92.7503,-4.84,100,100,2.57,CA,1706461738
492,jiaozuo,35.2397,113.2331,2.7,34,10,1.31,CN,1706461738
493,bilokurakyne,49.5341,38.7307,-0.29,98,100,2.96,UA,1706461738
494,mount pearl,47.5166,-52.7813,-0.08,83,100,3.58,CA,1706461739
495,ascoli piceno,42.8548,13.5749,9.03,73,1,1.0,IT,1706461739
496,beau vallon,-20.4189,57.6953,27.9,85,19,3.94,MU,1706461739
497,veshenskaya,49.6303,41.7334,-2.72,89,100,3.58,RU,1706461739
498,muynoq,43.7683,59.0214,0.89,81,84,4.1,UZ,1706461739
499,malabo,3.75,8.7833,29.92,66,20,3.09,GQ,1706461740
500,valparaiso,-33.0393,-71.6273,27.3,74,100,2.57,CL,1706461740
501,esil,51.9556,66.4042,-20.85,100,59,1.13,KZ,1706461740
502,calliope,-24.0,151.2,28.16,89,75,3.6,AU,1706461740
503,matonga,-2.3833,34.0833,20.36,83,81,1.37,TZ,1706461740
504,chyorny yar,48.0624,46.1091,-3.46,96,100,5.16,RU,1706461741
505,amal,59.051,12.7049,3.09,73,100,7.61,SE,1706461741
506,malangawa,26.8568,85.5581,12.53,43,93,1.38,NP,1706461741
507,punta gorda,26.9298,-82.0454,22.22,86,100,5.66,US,1706461546
508,villanueva,15.3167,-88.0,30.02,67,47,1.84,HN,1706461742
509,khandyga,62.6667,135.6,-44.71,100,98,0.35,RU,1706461742
510,xai-xai,-25.0519,33.6442,24.24,72,17,4.98,MZ,1706461742
511,usogorsk,63.4106,48.6872,-6.85,94,100,3.87,RU,1706461743
512,poli,-3.3333,36.8,18.56,70,77,1.36,TZ,1706461743
513,kismayo,-0.3582,42.5454,26.99,84,48,6.18,SO,1706461743
514,spisska nova ves,48.9446,20.5615,1.78,69,49,1.5,SK,1706461743
515,mossel bay,-34.1831,22.146,21.02,78,100,1.28,ZA,1706461744
516,kalemie,-5.9475,29.1947,22.64,89,97,2.5,CD,1706461744
517,choele choel,-39.2667,-65.6833,37.66,16,96,8.98,AR,1706461745
518,vila franca do campo,37.7167,-25.4333,15.23,62,26,5.57,PT,1706461745
519,wamba,8.9333,8.6,33.07,13,3,3.08,NG,1706461745
520,nalut,30.3333,10.85,13.98,56,0,4.18,LY,1706461746
521,mascara,35.3966,0.1403,17.69,31,96,1.96,DZ,1706461746
522,itoman,26.1247,127.6694,16.43,57,20,3.09,JP,1706461746
523,namasuba,0.6894,32.4214,21.77,65,78,1.89,UG,1706461747
524,northam,51.0333,-4.2167,13.14,91,100,8.59,GB,1706461747
525,siwa oasis,29.2041,25.5195,16.62,47,28,4.13,EG,1706461747
526,broome,42.2506,-75.833,2.43,95,100,1.54,US,1706461612
527,sudogda,55.9539,40.8629,-12.38,100,99,1.05,RU,1706461748
528,juneau,58.3019,-134.4197,4.67,97,100,8.75,US,1706461748
529,korla,41.7597,86.1469,-7.98,80,56,1.06,CN,1706461748
530,barah,13.7,30.3667,20.38,17,62,4.79,SD,1706461748
531,mercedes,-34.6515,-59.4307,31.03,20,63,5.86,AR,1706461749
532,xishan,27.6667,113.5,7.35,80,95,0.64,CN,1706461523
533,oyon,-10.6681,-76.7731,13.67,71,96,1.92,PE,1706461751
534,jalai nur,49.45,117.7,-30.26,90,4,2.02,CN,1706461751
535,kargat,55.1956,80.2811,-14.85,98,100,1.74,RU,1706461751
536,dahab,28.501,34.5134,16.14,51,3,4.87,EG,1706461751
537,mawlamyinegyunn,16.3833,95.2667,21.67,75,14,2.49,MM,1706461752
538,kudahuvadhoo,2.6708,72.8944,27.66,71,8,7.2,MV,1706461752
539,coxim,-18.5067,-54.76,37.39,15,22,4.05,BR,1706461752
540,monrovia,6.3005,-10.7969,29.38,69,6,5.56,LR,1706461752
541,owando,-0.4819,15.8999,32.39,31,76,0.6,CG,1706461752
542,neryungri,56.6709,124.6491,-32.84,98,100,1.91,RU,1706461753
543,tan-tan,28.438,-11.1032,27.02,15,0,2.18,MA,1706461753
544,guajara mirim,-10.7828,-65.3394,34.34,47,96,2.29,BR,1706461753
545,nema,57.5067,50.5011,-15.36,100,91,1.74,RU,1706461754
546,isiro,2.7739,27.616,24.52,39,100,1.4,CD,1706461754
547,coalcoman de vazquez pallares,18.7833,-103.15,28.99,20,34,0.71,MX,1706461754
548,petoskey,45.3733,-84.9553,1.98,91,100,0.0,US,1706461755
549,ijui,-28.3878,-53.9147,26.95,56,0,1.02,BR,1706461708
550,kobayashi,31.9833,130.9833,2.1,85,2,1.83,JP,1706461755
551,velikiye luki,56.34,30.5452,-6.86,97,14,2.3,RU,1706461755
552,takoradi,4.8845,-1.7554,28.87,60,7,4.09,GH,1706461755
553,rabigh,22.7986,39.0349,22.45,49,99,4.99,SA,1706461756
554,pizarro,4.9533,-77.366,28.7,77,34,1.5,CO,1706461756
555,mragowo,53.8644,21.3051,3.0,92,31,2.42,PL,1706461756
556,lompoc,34.6391,-120.4579,20.88,66,0,5.14,US,1706461603
557,maragogipe,-12.7778,-38.9194,29.77,69,87,1.5,BR,1706461757
558,tralee,52.2704,-9.7026,9.14,87,100,2.06,IE,1706461757
559,serenje,-13.2325,30.2352,18.75,92,80,3.11,ZM,1706461757
560,morehead city,34.7229,-76.726,22.23,87,0,9.77,US,1706461757
561,da nang,16.0678,108.2208,19.99,77,75,3.09,VN,1706461757
562,palitana,21.5167,71.8333,22.43,35,70,2.47,IN,1706461758
563,puerto cabezas,14.0351,-83.3888,27.86,72,13,5.2,NI,1706461758
564,sake,-1.5736,29.045,19.51,87,98,0.94,CD,1706461758
565,iranduba,-3.2847,-60.1861,33.18,53,100,2.25,BR,1706461590
566,punata,-17.55,-65.8333,22.25,55,86,1.52,BO,1706461759
567,tejen,37.3834,60.5054,7.2,75,100,5.58,TM,1706461756
568,preobrazheniye,42.9019,133.9064,-7.48,77,9,1.91,RU,1706461759
569,rohri,27.6922,68.8951,13.93,77,100,0.0,PK,1706461759
570,salinas,36.6777,-121.6555,18.73,72,0,8.75,US,1706461760
